{"count":17,"shops":[{"id":60,"distance":1778.7104120678725,"name":"东华门店","tel":"010-65268376","addr":"东城区东华门大街17号（木棉花酒店对面","area":"王府井/东单","longitude":116.405822,"latitude":39.915398,"traff":"","updateDate":1329908663000},{"id":115,"distance":2107.3496838437195,"name":"乐天银泰店","tel":"15201245836","addr":"东城区王府井大街88号乐天银泰百货B1楼（近王府井教堂）","area":"王府井/东单","longitude":116.41169,"latitude":39.916324,"traff":"地铁：乘1号线王府井站或者5号线灯市口站下车，西行500左右即是","updateDate":1329908663000},{"id":59,"distance":2959.933325262928,"name":"金宝街店","tel":"010-85221771","addr":"东城区金宝街88号金宝汇602","area":"王府井/东单","longitude":116.421293,"latitude":39.915211,"traff":"","updateDate":1329908663000},{"id":204,"distance":3812.3258465144213,"name":"金爵皇朝","tel":"010-85197777","addr":"朝阳区朝阳门SOHO二期3楼","area":"朝阳其它","longitude":116.433001,"latitude":39.922376,"traff":"地铁：乘2号线朝阳门站B口出即是 公交：乘44/90/208路夜班/特2/特12路公交车在朝阳门南站下车即是","updateDate":1329908663000},{"id":82,"distance":3145.4864297905574,"name":"雍和宫分院","tel":"","addr":"东城区安定门东大街28号雍和大厦B座2楼","area":"安定门","longitude":116.420847,"latitude":39.948808,"traff":"","updateDate":1329908663000},{"id":22,"distance":3799.671696343832,"name":"来福士店","tel":"010-56223004","addr":"东城区东直门南大街1号来福士购物中心B1层k8","area":"东城区","longitude":116.432165,"latitude":39.940476,"traff":"地铁：乘2号线东直门站D口出即是 公交：乘24/106/107/117/612/635路上行/635路下行路公交车在东直门内站下车即是","updateDate":1329908663000},{"id":73,"distance":2805.369915002964,"name":"积水潭分院","tel":"","addr":"西城区德胜门西大街甲58号（近地铁积水潭站B出口）","area":"什刹海","longitude":116.374451,"latitude":39.948366,"traff":"","updateDate":1329908663000},{"id":64,"distance":2269.99790748801,"name":"apm店","tel":"010-65125339","addr":"东城区王府井大街138号北京APM 5层","area":"王府井/东单","longitude":116.41149,"latitude":39.913731,"traff":"","updateDate":1329908663000},{"id":69,"distance":3997.5424513064663,"name":"泰来轩","tel":"62220705/62271418","addr":"西城区文慧园斜街（近首航超市）","area":"西直门/动物园","longitude":116.361484,"latitude":39.950748,"traff":"地铁：乘坐地铁2号线，积水潭站下，小西天牌楼西行即是公交：乘21/80/84/375/387/392/490/562/604路等，文慧桥南站下，步行至枫蓝国际，东行见红绿灯右转即是","updateDate":1329908663000},{"id":56,"distance":3834.5371559029672,"name":"斐冷翠","tel":"010-66211466/66210577","addr":"西城区广成街4号院3号楼802室","area":"复兴门","longitude":116.361209,"latitude":39.913118,"traff":"公交：乘7/38/47/477/金融街专线路公交车在辟才胡同站下车，向南行100米即是","updateDate":1329908663000},{"id":100,"distance":2917.5254514749076,"name":"悦淇冰激凌","tel":"13161215737","addr":"西单大悦城8楼8fd04吉野家旁边","area":"大悦城","longitude":116.374665,"latitude":39.909712,"traff":"地铁：乘1/4号线至西单站，F1出口出站即是 公交：乘22/46/603/604/608/626/690/83/ 88路公交车至西单商场站下车即是","updateDate":1329908663000},{"id":62,"distance":2918.8578108572306,"name":"西单中友百货店","tel":"010-66014757","addr":"西城区西单北大街176号中友百货B1层","area":"西单","longitude":116.374871,"latitude":39.909482,"traff":"","updateDate":1329908663000},{"id":206,"distance":2814.465668647795,"name":"西单店","tel":"010-66011768","addr":"西单华威商场4楼437商铺","area":"西单","longitude":116.374643,"latitude":39.91125,"traff":"地铁：乘1号线西单站A或B口出，南行至华威商场即是 公交：乘22/46/83/88/102/105/109/109电/204内夜/204外夜/603路上行/603路下行/604/608/626/690 路公交车在西单商场站下车即是","updateDate":1329908663000},{"id":106,"distance":2721.0926941211933,"name":"金福源","tel":"","addr":"西城区阜成门内大街甲92号旁院内（国土资源部胡同西60米）","area":"阜成门","longitude":116.369134,"latitude":39.923854,"traff":"地铁：乘4号线西四站D口出，西行约200米即是 公交：13/42/102/603路上行/603路下行/604/619路上行/619路下行/623/685路公交车在西四路口西站下车，西行约100米即是","updateDate":1329908663000},{"id":207,"distance":2397.4795786404447,"name":"茂盛龙高级定制","tel":"010-66017690/15901545002","addr":"西城区西四南大街40号甲（缸瓦市教堂对面）","area":"西四","longitude":116.373292,"latitude":39.921318,"traff":"地铁：乘坐地铁4号线在西四站下车D口出，步行约200米即是 公交：乘坐公交102/105电/603/604/608站在西四路口南站下车，步行约20米即是；乘坐22/38/47/88/102/105电/109电/204内夜/204外夜/603/604/626/690站到缸瓦市站下车，步行约150米即是","updateDate":1329908663000},{"id":111,"distance":2728.325979424815,"name":"丽江龙记斑鱼庄","tel":"010-57225868","addr":"西城区赵登禹路前帽胡同14号","area":"新街口","longitude":116.369261,"latitude":39.936933,"traff":"","updateDate":1329908663000},{"id":43,"distance":3299.4488660993998,"name":"积水潭店","tel":"010-82053557/82052785","addr":"西城区新街口外大街28—4号","area":"西城区","longitude":116.372486,"latitude":39.953487,"traff":"","updateDate":1329908663000}]}